[
  { "name": "Amsterdam", "lat": 52.3676, "lng": 4.9041 },
  { "name": "Athens", "lat": 37.9838, "lng": 23.7275 },
  { "name": "Bangkok", "lat": 13.7563, "lng": 100.5018 },
  { "name": "Barcelona", "lat": 41.3851, "lng": 2.1734 },
  { "name": "Beijing", "lat": 39.9042, "lng": 116.4074 },
  { "name": "Berlin", "lat": 52.52, "lng": 13.405 },
  { "name": "Buenos Aires", "lat": -34.6037, "lng": -58.3816 },
  { "name": "Cairo", "lat": 30.0444, "lng": 31.2357 },
  { "name": "Cape Town", "lat": -33.9249, "lng": 18.4241 },
  { "name": "Chicago", "lat": 41.8781, "lng": -87.6298 },
  { "name": "Dubai", "lat": 25.2048, "lng": 55.2708 },
  { "name": "Dublin", "lat": 53.3498, "lng": -6.2603 },
  { "name": "Frankfurt", "lat": 50.1109, "lng": 8.6821 },
  { "name": "Hong Kong", "lat": 22.3964, "lng": 114.1095 },
  { "name": "Istanbul", "lat": 41.0082, "lng": 28.9784 },
  { "name": "Johannesburg", "lat": -26.2041, "lng": 28.0473 },
  { "name": "Kuala Lumpur", "lat": 3.139, "lng": 101.6869 },
  { "name": "London", "lat": 51.5074, "lng": 0.1278 },
  { "name": "Los Angeles", "lat": 34.0522, "lng": -118.2437 },
  { "name": "Madrid", "lat": 40.4168, "lng": -3.7038 },
  { "name": "Melbourne", "lat": -37.8136, "lng": 144.9631 },
  { "name": "Mexico City", "lat": 19.4326, "lng": -99.1332 },
  { "name": "Moscow", "lat": 55.7558, "lng": 37.6173 },
  { "name": "Mumbai", "lat": 19.076, "lng": 72.8777 },
  { "name": "New York", "lat": 40.7128, "lng": -74.006 },
  { "name": "Paris", "lat": 48.8566, "lng": 2.3522 },
  { "name": "Rio de Janeiro", "lat": -22.9068, "lng": -43.1729 },
  { "name": "Rome", "lat": 41.9028, "lng": 12.4964 },
  { "name": "San Francisco", "lat": 37.7749, "lng": -122.4194 },
  { "name": "Sao Paulo", "lat": -23.5505, "lng": -46.6333 },
  { "name": "Seoul", "lat": 37.5665, "lng": 126.978 },
  { "name": "Shanghai", "lat": 31.2304, "lng": 121.4737 },
  { "name": "Singapore", "lat": 1.3521, "lng": 103.8198 },
  { "name": "Sydney", "lat": -33.8688, "lng": 151.2093 },
  { "name": "Tokyo", "lat": 35.6895, "lng": 139.6917 },
  { "name": "Toronto", "lat": 43.6532, "lng": -79.3832 },
  { "name": "Zurich", "lat": 47.3769, "lng": 8.5417 },
  { "name": "New Delhi", "lat": 28.6139, "lng": 77.209 },
  { "name": "Jakarta", "lat": -6.2088, "lng": 106.8456 },
  { "name": "Manila", "lat": 14.5995, "lng": 120.9842 },
  { "name": "Hanoi", "lat": 21.0278, "lng": 105.8342 },
  { "name": "Taipei", "lat": 25.033, "lng": 121.5654 },
  { "name": "Osaka", "lat": 34.6937, "lng": 135.5023 },
  { "name": "El Cairo", "lat": 30.0444, "lng": 31.2357 },
  { "name": "Lagos", "lat": 6.5244, "lng": 3.3792 },
  { "name": "Kinshasa", "lat": -4.4419, "lng": 15.2663 },
  { "name": "Luanda", "lat": -8.8368, "lng": 13.2343 },
  { "name": "Dar es Salaam", "lat": -6.8, "lng": 39.2833 },
  { "name": "Nairobi", "lat": -1.2921, "lng": 36.8219 },
  { "name": "Addis Ababa", "lat": 9.0249, "lng": 38.7468 },
  { "name": "Khartoum", "lat": 15.5007, "lng": 32.5599 },
  { "name": "Johannesburg", "lat": -26.2041, "lng": 28.0473 },
  { "name": "Cape Town", "lat": -33.9249, "lng": 18.4241 },
  { "name": "Durban", "lat": -29.8587, "lng": 31.0218 },
  { "name": "Abidjan", "lat": 5.3097, "lng": -4.0128 },
  { "name": "Accra", "lat": 5.6037, "lng": -0.187 },
  { "name": "Dakar", "lat": 14.6928, "lng": -17.4467 },
  { "name": "Abuja", "lat": 9.0722, "lng": 7.4913 },
  { "name": "Tunis", "lat": 36.8065, "lng": 10.1815 }
]

